,City,Cloudiness,Country,Date,Humidity,Lat,Lng,Max Temp,Wind Speed
0,Esperance,73,AU,1584314613,93,-33.87,121.9,64.4,5.82
1,Port Elizabeth,75,ZA,1584314989,93,-33.92,25.57,62.6,4.7
2,Broken Hill,0,AU,1584315019,37,-31.95,141.43,68.0,13.87
3,Qaanaaq,100,GL,1584314549,61,77.48,-69.36,-3.8,7.52
4,Manokwari,100,ID,1584314629,69,-0.87,134.08,76.86,2.35
5,Ouadda,52,CF,1584315022,33,8.08,22.4,70.34,3.53
6,Evensk,100,RU,1584314989,74,61.95,159.23,13.96,14.38
7,Butaritari,0,KI,1584314492,79,3.07,172.79,84.18,13.78
8,Saskylakh,100,RU,1584314586,96,71.92,114.08,-8.37,20.74
9,Busselton,35,AU,1584314356,76,-33.65,115.33,60.01,7.43
10,Puno,40,PE,1584315018,50,-15.83,-70.03,57.2,8.05
11,Lyaskelya,100,RU,1584315029,85,61.77,31.02,31.23,15.03
12,Cervo,33,ES,1584315030,76,43.67,-7.41,50.0,2.89
13,Mahébourg,40,MU,1584314732,88,-20.41,57.7,73.99,3.36
14,Kasongo-Lunda,100,CD,1584315033,96,-6.47,16.82,69.82,0.54
15,Tautira,20,PF,1584315034,62,-17.73,-149.15,89.6,6.93
16,Avarua,100,CK,1584314947,79,-21.21,-159.78,84.2,6.93
17,Ushuaia,75,AR,1584314659,71,-54.8,-68.3,55.4,19.46
18,Port Alfred,100,ZA,1584314901,98,-33.59,26.89,62.01,1.01
19,Dumas,90,US,1584315038,81,35.87,-101.97,42.8,4.7
20,Codrington,0,AU,1584315039,77,-38.27,141.97,58.5,15.14
21,Albany,1,US,1584314724,47,42.6,-73.97,41.0,12.75
22,Panguipulli,0,CL,1584315042,56,-39.63,-72.33,68.0,5.82
23,Itaituba,88,BR,1584315043,99,-4.28,-55.98,69.85,1.3
24,Anloga,16,GH,1584315044,81,5.79,0.9,82.8,13.56
25,Punta Arenas,75,CL,1584314681,72,-53.15,-70.92,59.0,16.11
26,Hambantota,8,LK,1584314730,79,6.12,81.12,79.07,6.82
27,Grindavik,90,IS,1584314882,95,63.84,-22.43,35.6,38.03
28,Belyy Yar,100,RU,1584315049,85,53.6,91.39,39.2,6.71
29,Pacific Grove,90,US,1584314940,62,36.62,-121.92,55.4,8.05
30,Iqaluit,90,CA,1584314549,76,63.75,-68.51,-4.0,6.93
31,Lebu,0,CL,1584314637,74,-37.62,-73.65,56.95,9.91
32,Ronda,20,ES,1584315053,93,36.74,-5.17,59.0,2.24
33,Faya,0,SA,1584315054,87,18.39,42.45,57.2,4.7
34,Sittwe,18,MM,1584315055,71,20.15,92.9,70.21,5.68
35,Cape Town,20,ZA,1584314488,63,-33.93,18.42,64.4,19.46
36,George Town,20,MY,1584314954,94,5.41,100.34,78.01,2.24
37,La Trinidad,0,PH,1584315059,65,16.45,120.59,76.19,0.92
38,Champerico,75,GT,1584315060,62,14.3,-91.92,86.0,9.17
39,Dikson,100,RU,1584314644,100,73.51,80.55,-13.11,7.56
40,Bethel,1,US,1584314727,24,41.37,-73.41,48.99,9.17
41,Chui,100,UY,1584314892,71,-33.7,-53.46,64.0,6.35
42,Puerto Colombia,20,CO,1584314860,74,10.99,-74.95,80.6,30.04
43,Kaitangata,69,NZ,1584314915,81,-46.28,169.85,53.38,33.15
44,Chapais,1,CA,1584315067,54,49.78,-74.85,5.0,4.7
45,Rikitea,92,PF,1584314685,81,-23.12,-134.97,79.11,12.15
46,Isangel,100,VU,1584314990,81,-19.55,169.27,83.23,24.45
47,Atuona,5,PF,1584314539,65,-9.8,-139.03,82.42,9.31
48,Upernavik,1,GL,1584314985,75,72.79,-56.15,-23.03,8.03
49,Puerto Ayora,20,EC,1584314844,78,-0.74,-90.35,82.4,10.29
50,Halifax,40,CA,1584314812,50,44.65,-63.57,30.99,5.82
51,Kargasok,100,RU,1584315075,99,59.06,80.86,35.24,13.53
52,Västerås,100,SE,1584315076,87,59.62,16.55,45.0,16.11
53,Hilo,90,US,1584314562,74,19.73,-155.09,78.8,12.75
54,Avera,1,US,1584315078,82,33.19,-82.53,69.8,2.3
55,Mataura,89,NZ,1584314619,83,-46.19,168.86,55.0,10.0
56,Pangnirtung,100,CA,1584314723,96,66.15,-65.71,-20.67,3.94
57,Greeneville,90,US,1584315081,87,36.16,-82.83,55.0,3.06
58,Brewster,1,US,1584314982,24,41.4,-73.62,48.99,9.17
59,Hervey Bay,76,AU,1584315084,57,-25.3,152.85,79.0,18.34
60,Vanimo,100,PG,1584315085,83,-2.67,141.3,77.85,8.3
61,Saint-Philippe,100,RE,1584314591,69,-21.36,55.77,75.2,11.41
62,Houma,1,US,1584315087,64,29.6,-90.72,82.4,10.29
63,Khadro,40,PK,1584315088,72,26.15,68.72,62.6,4.7
64,Yar-Sale,8,RU,1584315089,99,66.83,70.83,-12.68,3.27
65,Auki,100,SB,1584314723,72,-8.77,160.7,84.85,7.9
66,Vao,60,NC,1584314815,72,-22.67,167.48,81.59,33.78
67,Cabo San Lucas,75,MX,1584314639,64,22.89,-109.91,73.0,5.82
68,Basco,43,PH,1584314999,71,20.45,121.97,70.3,24.16
69,Elmira,1,US,1584315095,24,42.09,-76.81,37.99,12.75
70,Magistral'nyy,94,RU,1584315096,86,56.17,107.45,25.92,6.49
71,Okahandja,90,NA,1584315097,56,-21.98,16.92,73.99,4.7
72,Bredasdorp,72,ZA,1584314620,68,-34.53,20.04,66.2,12.75
73,Haines Junction,11,CA,1584315100,83,60.75,-137.51,28.27,2.68
74,Bambous Virieux,40,MU,1584314573,88,-20.34,57.76,73.99,3.36
75,Arraial do Cabo,5,BR,1584314729,78,-22.97,-42.03,80.6,13.87
76,Ust-Nera,66,RU,1584315103,94,64.57,143.2,-18.49,3.02
77,Carnarvon,40,AU,1584314748,88,-24.87,113.63,75.2,9.17
78,Payo,99,ID,1584315105,97,-3.75,103.64,70.27,1.05
79,Mar del Plata,3,AR,1584314462,63,-38.0,-57.56,61.0,6.93
80,Bluff,87,NZ,1584314733,83,-46.6,168.33,55.0,10.0
81,Qinhuangdao,37,CN,1584315109,45,39.93,119.59,32.83,7.87
82,Guerrero Negro,0,MX,1584315110,62,27.98,-114.06,63.68,16.82
83,Vaini,90,TO,1584314469,79,-21.2,-175.2,86.0,13.87
84,Vila Velha,20,BR,1584315112,83,-20.33,-40.29,79.0,3.36
85,Kisanga,99,TZ,1584315113,97,-7.44,37.7,73.9,2.35
86,Olafsvik,100,IS,1584314636,78,64.89,-23.71,31.71,22.41
87,Aykhal,90,RU,1584314987,92,66.0,111.5,21.2,4.47
88,Axum,100,ET,1584315116,42,14.12,38.72,60.24,2.77
89,Inuvik,5,CA,1584315118,60,68.35,-133.72,6.8,6.93
90,Oranjemund,0,NA,1584315119,89,-28.55,16.43,61.32,7.47
91,Khatanga,89,RU,1584314569,90,71.97,102.5,-26.88,10.8
92,Lugovoy,98,KZ,1584315121,28,42.95,72.76,47.84,4.99
93,Jamestown,1,US,1584314615,40,42.1,-79.24,37.4,11.41
94,Baruun-Urt,51,MN,1584315123,81,46.68,113.28,23.05,12.73
95,Port Blair,70,IN,1584315124,74,11.67,92.75,82.54,11.63
96,Ponta do Sol,40,PT,1584315126,63,32.67,-17.1,62.6,14.99
97,Mandalī,3,IQ,1584315127,75,33.75,45.55,61.93,1.63
98,Huarmey,90,PE,1584314735,63,-10.07,-78.15,75.9,3.74
99,São João do Paraíso,96,BR,1584315129,97,-15.31,-42.01,65.16,3.15
100,Kisangani,98,CD,1584314877,92,0.52,25.2,72.14,2.04
101,Christchurch,0,NZ,1584314586,52,-43.53,172.63,72.0,17.22
102,Khartoum,66,SD,1584315133,12,15.55,32.53,73.4,11.41
103,Yantal',100,RU,1584315134,93,56.85,105.25,26.02,12.17
104,Port Shepstone,79,ZA,1584315135,89,-30.74,30.45,68.32,9.69
105,East London,100,ZA,1584314471,71,-33.02,27.91,70.05,11.77
106,Sur,8,OM,1584314732,74,22.57,59.53,66.38,8.81
107,Ixtapa,5,MX,1584315138,69,20.7,-105.2,78.8,11.41
108,Nome,100,US,1584314670,96,64.5,-165.41,27.7,7.14
109,Ribeira Grande,42,PT,1584314875,82,38.52,-28.7,56.77,8.1
110,Curuçá,100,BR,1584315142,83,-0.73,-47.85,78.04,2.39
111,Hithadhoo,84,MV,1584314417,62,-0.6,73.08,82.99,5.88
112,Castro,7,BR,1584314342,78,-24.79,-50.01,67.95,3.47
113,Utete,95,TZ,1584315145,97,-7.99,38.76,76.32,2.17
114,San Quintín,2,MX,1584315146,71,30.48,-115.95,61.45,16.13
115,Caxias,24,PT,1584315147,76,38.7,-9.28,53.01,11.41
116,Maceió,75,BR,1584315148,94,-9.67,-35.74,75.2,3.36
117,Bogale,100,MM,1584315150,72,16.28,95.4,72.81,4.97
118,Tasiilaq,100,GL,1584314617,50,65.61,-37.64,6.8,13.87
119,Gazli,100,UZ,1584315152,33,40.13,63.45,60.53,5.06
120,Manggar,39,ID,1584315153,76,-2.88,108.27,81.79,4.68
121,Coquimbo,90,CL,1584315154,82,-29.95,-71.34,62.6,6.93
122,Hobart,75,AU,1584314405,62,-42.88,147.33,62.01,4.7
123,Talcahuano,0,CL,1584315157,63,-36.72,-73.12,62.6,14.99
124,Hermanus,24,ZA,1584314533,83,-34.42,19.23,63.0,5.01
125,Gladstone,0,AU,1584315056,50,-23.85,151.25,77.0,13.87
126,Solms,75,DE,1584315160,88,50.77,9.6,46.0,2.24
127,Lamu,100,KE,1584315161,82,-2.27,40.9,83.23,12.26
128,Yumen,55,CN,1584315162,40,40.28,97.2,27.72,0.31
129,Seymchan,21,RU,1584315163,84,62.88,152.43,-7.85,3.8
130,Belmonte,91,BR,1584315164,78,-15.86,-38.88,78.8,3.36
131,Airai,76,TL,1584314643,61,-8.93,125.41,76.41,1.92
132,Coyhaique,75,CL,1584315167,63,-45.58,-72.07,60.8,6.02
133,Coahuayana Viejo,75,MX,1584315168,74,18.73,-103.68,80.6,13.87
134,Srednekolymsk,0,RU,1584314607,88,67.45,153.68,-9.78,3.02
135,Vanavara,100,RU,1584315170,92,60.34,102.28,27.01,9.93
136,Yeppoon,20,AU,1584315171,53,-23.13,150.73,77.0,11.41
137,Boyuibe,90,BO,1584315172,69,-20.42,-63.28,75.2,9.17
138,Zunyi,100,CN,1584315174,78,27.69,106.91,49.91,7.27
139,Barrow,90,US,1584314656,77,71.29,-156.79,6.8,24.16
140,Raja,71,SS,1584315176,24,8.46,25.68,71.49,3.02
141,Cidreira,85,BR,1584314723,91,-30.18,-50.21,75.79,8.5
142,Morón,20,AR,1584315178,68,-34.65,-58.62,69.8,8.05
143,Alice Springs,0,AU,1584315072,18,-23.7,133.88,73.4,9.17
144,Aksu,3,CN,1584315180,29,41.12,80.26,39.61,4.21
145,Bengkulu,28,ID,1584315181,87,-3.8,102.27,75.34,3.38
146,Lipari,40,IT,1584315183,87,38.47,14.95,59.0,4.7
147,Mońki,63,PL,1584315184,56,53.41,22.8,32.0,35.01
148,Shablykino,50,RU,1584315185,63,52.86,35.2,26.92,9.62
149,Sault Ste. Marie,1,CA,1584315186,36,46.52,-84.33,28.4,3.36
150,Buin,0,CL,1584315187,27,-33.73,-70.75,80.6,6.93
151,Staraya Russa,61,RU,1584315189,68,57.99,31.36,29.32,11.18
152,Peterhead,75,GB,1584315190,74,57.51,-1.8,39.99,13.87
153,Berlevåg,20,NO,1584314733,67,70.86,29.09,23.0,11.41
154,Half Moon Bay,90,US,1584315192,66,37.46,-122.43,55.4,10.29
155,Faanui,1,PF,1584315193,77,-16.48,-151.75,82.71,12.64
156,Jiuquan,100,CN,1584315194,37,39.74,98.52,30.79,2.89
157,Alta Floresta,100,BR,1584315195,96,-9.88,-56.09,72.79,3.47
158,Saint George,1,US,1584315090,37,37.1,-113.58,66.99,19.46
159,Lagoa,0,PT,1584314652,79,39.05,-27.98,60.71,9.53
160,Kapaa,20,US,1584314441,69,22.08,-159.32,80.6,12.75
161,Nikolskoye,82,RU,1584314727,55,59.7,30.79,34.0,11.18
162,New Norfolk,75,AU,1584314618,62,-42.78,147.06,62.01,4.7
163,Shabqadar,20,PK,1584315202,76,34.21,71.56,55.4,4.7
164,Tuktoyaktuk,20,CA,1584314627,70,69.45,-133.04,-2.2,18.34
165,Bontang,49,ID,1584315204,77,0.13,117.5,81.16,13.96
166,Lüderitz,0,NA,1584315206,72,-26.65,15.16,66.2,14.99
167,Thoen,50,TH,1584315207,79,17.61,99.22,70.93,2.1
168,São Miguel do Araguaia,79,BR,1584315208,96,-13.28,-50.16,73.51,5.82
169,Vágur,79,FO,1584315209,69,61.47,-6.81,37.33,17.74
170,Narsaq,56,GL,1584315210,45,60.92,-46.05,23.0,5.82
171,Saint-Pierre,100,RE,1584315211,69,-21.34,55.48,75.2,11.41
172,Kahului,40,US,1584315154,58,20.89,-156.47,84.2,9.17
173,Hammerfest,100,NO,1584315214,73,70.66,23.68,21.2,17.22
174,Lucea,20,JM,1584315215,65,18.45,-78.17,80.6,16.11
175,Middlebury (village),1,US,1584315160,49,44.02,-73.17,28.99,10.29
176,Kibre Mengist,72,ET,1584315217,93,5.88,38.98,61.36,1.52
177,Soto la Marina,13,MX,1584315218,76,23.77,-98.22,75.13,12.75
178,Kiryat Gat,34,IL,1584314966,87,31.61,34.76,59.0,1.12
179,Talnakh,40,RU,1584315220,75,69.49,88.4,-14.8,8.95
180,Cockburn Town,0,TC,1584314987,71,21.46,-71.14,74.23,16.26
181,Ostrovnoy,100,RU,1584314736,96,68.05,39.51,24.31,7.29
182,Sept-Îles,75,CA,1584315224,56,50.2,-66.38,17.01,11.41
183,Narrabri,0,AU,1584315225,49,-30.32,149.78,69.8,13.87
184,Acaraú,100,BR,1584315226,94,-2.89,-40.12,76.41,3.33
185,Alofi,100,NU,1584315227,79,-19.06,-169.92,86.0,8.05
186,Bariloche,0,AR,1584315228,39,-41.15,-71.31,70.0,6.93
187,La Santisima Trinidad,75,BO,1584315230,79,-14.83,-64.9,86.0,1.74
188,Taketa,75,JP,1584315231,80,32.97,131.38,44.6,12.91
189,Dongsheng,80,CN,1584315232,29,39.82,109.98,36.99,12.19
190,Yellowknife,75,CA,1584314726,53,62.46,-114.35,21.2,39.15
191,Shimoda,40,JP,1584315234,43,34.67,138.95,51.8,8.05
192,Haapiti,20,PF,1584315235,62,-17.57,-149.87,89.6,6.93
193,Pisco,75,PE,1584314727,30,-13.7,-76.22,71.6,18.34
194,Saint Paul Harbor,75,US,1584314659,55,57.79,-152.41,39.2,2.77
195,Ekpoma,27,NG,1584315239,87,6.74,6.14,78.04,2.98
196,Souillac,40,MU,1584314673,88,-20.52,57.52,73.99,3.36
197,Maxixe,0,MZ,1584315241,82,-23.86,35.35,78.76,10.85
198,Kavieng,93,PG,1584315242,71,-2.57,150.8,83.61,5.88
199,Fraserburgh,75,GB,1584315243,74,57.69,-2.02,39.99,13.87
200,Provideniya,75,RU,1584315244,92,64.38,-173.3,28.4,6.71
201,Elizabeth City,90,US,1584315245,70,36.29,-76.25,48.99,16.11
202,College,20,US,1584314733,86,64.86,-147.8,34.0,4.7
203,Longyearbyen,90,SJ,1584314936,64,78.22,15.64,-0.4,13.87
204,Severo-Kuril'sk,100,RU,1584314899,97,50.68,156.12,28.85,34.9
205,Mogadishu,87,SO,1584315250,82,2.04,45.34,82.53,19.35
206,Eyl,79,SO,1584315251,77,7.98,49.82,79.56,11.14
207,Linqiong,40,CN,1584315252,100,30.42,103.46,55.99,2.24
208,Tiznit Province,71,MA,1584315254,87,29.58,-9.5,50.0,5.35
209,San Ramon,90,US,1584315255,58,37.78,-121.98,55.4,14.99
210,Sibu,75,MY,1584315256,100,2.3,111.82,75.2,2.57
211,Kumul,0,CN,1584315257,30,42.8,93.45,34.63,2.71
212,Yulara,0,AU,1584315258,13,-25.24,130.99,77.0,11.41
213,Padang,84,ID,1584315259,88,-0.95,100.35,70.21,5.32
214,Ilulissat,0,GL,1584315260,46,69.22,-51.1,-14.8,5.82
215,Kloulklubed,75,PW,1584314735,83,7.04,134.26,80.6,6.93
216,Abu Samrah,81,SY,1584315263,86,35.3,37.18,53.53,6.38
217,Katsuura,40,JP,1584315264,75,35.13,140.3,51.01,10.29
218,Nishihara,0,JP,1584315265,45,26.18,127.76,64.4,19.46
219,Naze,75,JP,1584314725,48,28.37,129.48,60.8,18.34
220,Kédougou,59,SN,1584315267,16,12.56,-12.17,79.45,3.02
221,Addis Ababa,75,ET,1584315268,63,9.03,38.75,66.2,9.17
222,Shihezi,0,CN,1584315269,51,44.3,86.03,36.18,0.85
223,Falmouth,0,GB,1584315271,81,50.15,-5.07,46.0,13.87
224,Rawson,75,AR,1584315272,58,-43.3,-65.1,65.25,18.03
225,Ghātsīla,64,IN,1584315273,73,22.6,86.48,72.0,0.29
226,Jumla,0,NP,1584315274,50,29.27,82.18,23.85,6.62
227,Richards Bay,23,ZA,1584315275,79,-28.78,32.04,78.19,24.49
228,Vuktyl,60,RU,1584315277,91,63.86,57.31,-0.65,6.87
229,Araouane,2,ML,1584314895,9,18.9,-3.53,78.06,7.0
230,Sioux Lookout,90,CA,1584315279,39,50.1,-91.92,30.2,8.05
231,Puerto Gaitán,94,CO,1584315280,38,4.31,-72.08,88.54,6.51
232,Gornopravdinsk,100,RU,1584315281,85,60.05,69.9,22.89,12.91
233,Maryborough,37,AU,1584315051,63,-25.53,152.7,74.12,11.92
234,Vardø,90,NO,1584314906,67,70.37,31.11,19.4,10.29
235,Soyo,100,AO,1584315284,91,-6.13,12.37,80.46,2.44
236,Meulaboh,57,ID,1584315286,77,4.14,96.13,83.12,9.15
237,Beringovskiy,8,RU,1584314731,84,63.05,179.32,27.63,4.68
238,Caucayá,46,CO,1584315288,81,-0.19,-74.78,76.86,2.06
239,Hastings,50,GB,1584314999,93,50.86,0.57,48.2,5.82
240,Ambon City,20,ID,1584315290,74,-3.7,128.18,84.2,3.36
241,San Vicente,82,AR,1584315291,53,-26.62,-54.13,78.1,5.28
242,Thompson,90,CA,1584315025,57,55.74,-97.86,19.4,13.87
243,Acarí,98,PE,1584315294,91,-15.43,-74.62,67.64,3.04
244,Kushiro,75,JP,1584315295,68,42.98,144.37,24.8,4.7
245,Carauari,99,BR,1584315296,95,-4.88,-66.9,77.25,1.68
246,Westport,1,US,1584315161,16,41.14,-73.36,50.0,10.29
247,Iranshahr,35,IR,1584315298,41,27.2,60.68,64.24,3.71
248,Tooele,1,US,1584314723,31,40.53,-112.3,64.4,25.28
249,Cap Malheureux,40,MU,1584315300,88,-19.98,57.61,73.99,3.36
250,Ulaangom,100,MN,1584315301,89,49.98,92.07,3.09,0.43
251,São João del Rei,20,BR,1584315303,68,-21.14,-44.26,69.8,3.36
252,Chokurdakh,0,RU,1584315304,84,70.63,147.92,-15.27,6.06
253,Tabas,100,IR,1584315305,73,33.6,56.92,58.05,9.1
254,Fairbanks,90,US,1584315306,80,64.84,-147.72,35.01,2.75
255,Kultuk,96,RU,1584315307,95,51.72,103.7,18.25,2.8
256,Toamasina,75,MG,1584315308,94,-18.17,49.38,77.0,11.41
257,Quatre Cocos,40,MU,1584314985,88,-20.21,57.76,73.99,3.36
258,Cherskiy,88,RU,1584315311,89,68.75,161.3,-0.67,3.83
259,Bhīmunipatnam,20,IN,1584315312,88,17.88,83.43,75.2,2.24
260,Mount Isa,18,AU,1584314732,31,-20.73,139.5,77.0,8.05
261,Pevek,65,RU,1584315314,82,69.7,170.31,6.1,13.62
262,Labuhan,100,ID,1584315040,85,-6.88,112.21,77.45,4.74
263,Freetown,100,SL,1584315316,65,8.48,-13.23,82.4,11.41
264,San Andrés,20,CO,1584315213,66,12.58,-81.7,84.2,11.41
265,La Asuncion,81,VE,1584315319,83,11.03,-63.86,78.8,5.82
266,Mossamedes,79,AO,1584315320,76,-15.2,12.15,75.31,3.76
267,Deputatsky,1,RU,1584315321,78,69.3,139.9,-21.37,3.18
268,Port Lincoln,75,AU,1584315322,51,-34.73,135.87,70.32,13.62
269,Gēdo,100,ET,1584315324,90,9.02,37.45,59.58,2.98
270,Portland,40,US,1584314963,42,45.52,-122.68,50.0,26.4
271,Bonthe,100,SL,1584315138,84,7.53,-12.51,80.92,8.57
272,Kaeo,100,NZ,1584314954,76,-35.1,173.78,69.01,5.99
273,Kangaatsiaq,100,GL,1584315328,95,68.31,-53.46,2.61,19.64
274,Ambilobe,100,MG,1584315329,90,-13.2,49.05,78.57,5.39
275,Cayenne,40,GF,1584315330,74,4.93,-52.33,80.6,3.36
276,Huilong,37,CN,1584315332,46,31.81,121.66,51.01,9.64
277,Garhi Khairo,84,PK,1584315333,37,28.06,67.98,69.08,4.29
278,Tiksi,100,RU,1584315334,81,71.69,128.87,7.47,20.62
279,Vieux Fort,20,LC,1584315335,78,13.72,-60.95,78.8,8.05
280,Edéa,40,CM,1584315336,88,3.8,10.13,82.4,1.12
281,Falāvarjān,3,IR,1584315337,54,32.56,51.51,35.6,4.7
282,Talara,1,PE,1584315339,100,-4.58,-81.27,62.6,11.41
283,Nemuro,83,JP,1584315340,68,43.32,145.57,27.66,4.72
284,Lovozero,100,RU,1584315341,93,68.0,35.01,22.84,6.35
285,Kafanchan,31,NG,1584315342,11,9.58,8.3,70.05,5.66
286,Kuleshovka,87,RU,1584315343,62,47.08,39.56,21.2,8.95
287,Klyuchi,100,RU,1584315344,83,52.27,79.17,36.27,15.73
288,Kokkola,90,FI,1584315345,93,63.84,23.13,39.0,14.99
289,Ancud,90,CL,1584315347,67,-41.87,-73.82,62.6,9.17
290,Devils Lake,90,US,1584315273,92,48.11,-98.87,24.8,10.29
291,Honningsvåg,20,NO,1584315349,67,70.98,25.97,19.4,11.41
292,Onega,83,RU,1584315350,80,63.91,38.14,29.68,16.96
293,Ivanteyevka,23,RU,1584315351,85,55.97,37.92,27.0,6.71
294,Port-Gentil,40,GA,1584315352,88,-0.72,8.78,82.4,4.7
295,Beira,4,MZ,1584315353,76,-19.84,34.84,81.81,10.67
296,Norman Wells,20,CA,1584315296,78,65.28,-126.83,15.8,21.92
297,Bodden Town,20,KY,1584315356,74,19.28,-81.25,80.6,14.99
298,Lubumbashi,100,CD,1584315357,96,-11.66,27.48,65.17,5.5
299,Saint-Joseph,100,RE,1584315358,69,-21.37,55.62,75.2,11.41
300,Puri,40,IN,1584315359,94,19.8,85.85,75.2,2.08
301,Tadine,100,NC,1584315360,67,-21.55,167.88,84.72,12.17
302,Sabzawār,100,IR,1584315361,66,36.21,57.68,53.92,12.84
303,Almaznyy,1,RU,1584315363,62,48.04,40.05,21.2,8.95
304,Usinsk,100,RU,1584315364,81,65.99,57.53,9.23,22.64
305,Sīwah,0,EG,1584315365,32,29.2,25.52,68.0,6.87
306,Diamantino,84,BR,1584315366,90,-14.41,-56.45,74.71,2.71
307,Saldanha,100,ZA,1584315367,72,-33.01,17.94,60.8,9.17
308,Luganville,100,VU,1584315368,95,-15.53,167.17,77.27,1.79
309,Snåase,100,NO,1584315369,96,64.25,12.38,21.74,20.96
310,Owerri,80,NG,1584315371,83,5.48,7.03,84.2,5.82
311,Oinacu,1,RO,1584315372,63,43.95,26.02,35.01,1.12
312,Sāl,47,JO,1584315373,87,32.57,35.91,51.8,2.04
313,Hay River,75,CA,1584315374,68,60.82,-115.8,28.4,16.11
314,Matagami,1,CA,1584315375,60,49.75,-77.63,8.6,2.24
315,Khani,90,GE,1584315376,100,41.96,42.96,44.6,10.29
316,Turbat,78,PK,1584315093,52,26.0,63.04,65.73,0.31
317,Maningrida,6,AU,1584315379,67,-12.07,134.27,81.97,5.23
318,Ojinaga,1,MX,1584315380,20,29.57,-104.42,87.8,12.75
319,Congleton,90,GB,1584315239,70,53.16,-2.21,46.0,10.29
320,Nuuk,20,GL,1584315382,64,64.18,-51.72,1.4,18.34
321,Broome,1,US,1584315383,31,42.25,-75.83,35.01,14.99
322,Dingle,0,PH,1584315384,74,11.0,122.67,76.51,10.18
323,San Luis,0,AR,1584315232,56,-33.3,-66.34,65.1,20.36
324,Manali,20,IN,1584315387,83,13.17,80.27,82.0,7.63
325,Tāndā,19,IN,1584315388,53,26.55,82.65,61.9,4.45
326,Liverpool,75,GB,1584315372,75,53.41,-2.98,46.4,12.75
327,Dalvik,20,IS,1584315390,68,65.97,-18.53,30.2,24.16
328,Khovd,51,MN,1584315391,31,48.01,91.64,23.65,5.17
329,Los Baños,75,PH,1584315392,74,14.17,121.18,81.0,5.82
330,Salekhard,60,RU,1584315393,98,66.53,66.6,-9.26,3.29
331,Ulladulla,75,AU,1584315395,100,-35.35,150.47,62.6,13.87
332,Shingū,20,JP,1584314727,75,33.73,135.98,42.8,11.41
333,Dorado,20,PR,1584315397,65,18.46,-66.27,77.0,10.29
334,Marawi,12,PH,1584315398,73,8.0,124.29,73.99,7.0
335,Caravelas,79,BR,1584315399,79,-17.71,-39.25,80.38,8.3
336,Los Llanos de Aridane,20,ES,1584315400,68,28.66,-17.92,64.4,21.92
337,Torbay,40,CA,1584315313,73,47.67,-52.73,27.0,14.99
338,Paramonga,65,PE,1584315308,88,-10.67,-77.83,72.86,9.8
339,Mama,100,RU,1584315404,96,58.31,112.9,24.24,5.26
340,Aksarka,0,RU,1584315405,75,66.56,67.8,-8.84,3.24
341,Hualmay,98,PE,1584315406,76,-11.1,-77.61,72.79,4.32
342,Vicuña,90,CL,1584315407,82,-30.03,-70.71,62.6,6.93
343,Kupino,100,RU,1584315408,84,54.37,77.3,34.65,25.86
344,Nanortalik,58,GL,1584314698,71,60.14,-45.24,20.21,19.89
345,Port Moresby,40,PG,1584315410,94,-9.44,147.18,77.0,9.17
346,Sinnamary,45,GF,1584315412,77,5.38,-52.95,79.88,16.13
347,Kununurra,0,AU,1584315413,69,-15.77,128.73,80.6,4.36
348,Magadan,100,RU,1584315414,66,59.57,150.8,7.92,14.43
349,Kavaratti,59,IN,1584315415,70,10.57,72.64,82.0,5.86
350,Lavrentiya,48,RU,1584315416,89,65.58,-171.0,27.88,8.81
351,Luwuk,47,ID,1584315417,75,-0.95,122.79,81.12,3.44
352,Loudéac,90,FR,1584315418,93,48.18,-2.75,46.99,6.93
353,Mount Gambier,0,AU,1584315420,76,-37.83,140.77,57.2,11.41
354,Leningradskiy,25,RU,1584315421,72,69.38,178.42,15.1,5.57
355,Constitución,0,CL,1584315422,86,-35.33,-72.42,53.1,7.0
356,Port Augusta,0,AU,1584315423,56,-32.5,137.77,71.01,1.12
357,Asău,0,RO,1584315424,58,46.43,26.4,25.0,2.24
358,Lenger,100,KZ,1584315426,34,42.18,69.88,53.6,6.71
359,Semnan,47,IR,1584315427,49,35.57,53.4,55.45,4.41
360,San Matías,74,BO,1584315428,72,-16.37,-58.4,81.77,6.71
361,Xunchang,100,CN,1584315429,54,28.45,104.72,56.8,4.56
362,Pontianak,12,ID,1584315430,95,-0.03,109.33,76.53,2.3
363,Paraná,99,AR,1584315431,94,-31.73,-60.52,70.0,1.01
364,Vestmannaeyjar,100,IS,1584315432,89,63.44,-20.27,38.32,43.71
365,Launceston,89,AU,1584315434,67,-41.45,147.17,64.0,4.7
366,Velizh,0,RU,1584315435,72,55.61,31.2,27.0,5.14
367,Poum,48,NC,1584314988,79,-20.23,164.02,82.38,13.15
368,Manutuke,100,NZ,1584315437,63,-38.68,177.92,71.01,3.0
369,Tuatapere,98,NZ,1584315438,85,-46.13,167.68,54.0,10.0
370,Sorong,20,ID,1584314982,69,-0.88,131.25,82.36,3.44
371,Vrangel',33,RU,1584315441,69,42.73,133.08,29.34,21.09
372,Tinskoy,100,RU,1584315442,94,56.15,96.92,30.06,7.16
373,Skellefteå,69,SE,1584315443,88,64.75,20.95,39.0,9.17
374,Baiyin,100,CN,1584315444,79,36.56,104.21,35.01,4.47
375,Egvekinot,98,RU,1584314985,97,66.32,-179.17,12.7,4.59
376,Saýat,100,TM,1584315446,36,38.78,63.88,64.4,6.93
377,Aklavik,5,CA,1584315448,60,68.22,-135.01,6.8,6.93
378,Markova,0,UA,1584315449,27,48.68,24.41,26.17,4.34
379,Fare,0,PF,1584314683,71,-16.7,-151.02,83.14,10.71
380,Namatanai,98,PG,1584315451,76,-3.67,152.43,83.28,12.1
381,Adrar,0,MR,1584315452,17,20.5,-10.07,70.34,12.3
382,Bonavista,42,CA,1584315453,79,48.65,-53.11,26.01,8.99
383,Mozarlândia,81,BR,1584315454,86,-14.74,-50.57,75.54,5.03
384,Mnogovershinnyy,0,RU,1584315455,81,53.94,139.92,4.42,4.0
385,Orocué,90,CO,1584315457,38,4.79,-71.34,87.71,3.44
386,Tutóia,100,BR,1584315458,95,-2.76,-42.27,75.02,2.28
387,Abakaliki,63,NG,1584315459,54,6.32,8.12,84.2,2.24
388,Hobyo,100,SO,1584315460,83,5.35,48.53,78.96,11.18
389,Babushkin,100,RU,1584315461,97,51.71,105.86,25.57,5.46
390,Pombas,20,CV,1584315462,73,17.15,-25.02,69.8,21.92
391,Angoche,87,MZ,1584314984,96,-16.23,39.91,71.28,5.01
392,Sturgeon Bay,1,US,1584315465,68,44.83,-87.38,33.01,8.05
393,São Filipe,14,CV,1584315466,71,14.9,-24.5,71.31,18.43
394,Flagstaff,20,US,1584315301,49,35.2,-111.65,66.99,16.11
395,Buala,97,SB,1584315468,81,-8.14,159.59,82.65,8.7
396,Akim Swedru,86,GH,1584315298,94,5.89,-1.02,76.82,2.68
397,Castro Urdiales,75,ES,1584315470,93,43.38,-3.22,50.0,9.17
398,Byron Bay,40,AU,1584315471,57,-28.65,153.62,77.0,18.34
399,Port Hedland,0,AU,1584315473,78,-20.32,118.57,82.4,8.03
400,Margate,79,GB,1584315474,93,51.38,1.39,48.0,2.24
401,Clayton,40,US,1584315475,93,33.53,-84.37,71.6,5.7
402,Brigantine,1,US,1584315476,56,39.41,-74.36,44.6,4.7
403,Clyde River,1,CA,1584314989,74,70.47,-68.59,-23.8,17.22
404,Opuwo,93,NA,1584315478,49,-18.06,13.84,68.18,2.08
405,Honiara,40,SB,1584315479,79,-9.43,159.95,86.0,6.93
406,Hong Kong,20,HK,1584315344,68,22.29,114.16,68.0,17.22
407,Prieska,0,ZA,1584315482,57,-29.66,22.75,68.65,10.07
408,Matamoros,75,MX,1584315483,21,25.53,-103.25,91.4,5.82
409,Buenos Aires,75,AR,1584315277,68,-34.61,-58.38,69.8,10.29
410,Natal,40,BR,1584315485,94,-5.79,-35.21,78.8,3.36
411,Kodinsk,72,RU,1584315486,93,58.69,99.18,27.55,9.4
412,Husavik,20,IS,1584315487,68,66.04,-17.34,30.2,24.16
413,Wukari,12,NG,1584315489,11,7.85,9.78,76.14,3.98
414,Samarai,5,PG,1584315490,58,-10.62,150.67,86.31,4.59
415,Punta Alta,0,AR,1584315491,50,-38.88,-62.07,64.26,18.07
416,Klaksvík,100,FO,1584315492,73,62.23,-6.59,26.6,12.1
417,Viedma,0,AR,1584315493,50,-40.81,-63.0,64.56,16.96
418,Pochutla,40,MX,1584315494,66,15.74,-96.47,88.0,13.87
419,Dunedin,50,NZ,1584315495,65,-45.87,170.5,60.01,24.0
420,Lake Charles,90,US,1584315496,61,30.21,-93.2,80.6,4.83
421,Piaçabuçu,86,BR,1584315498,81,-10.41,-36.43,80.35,9.04
422,La Ronge,75,CA,1584315499,57,55.1,-105.28,17.6,12.75
423,Chupa,100,RU,1584315500,97,66.27,33.05,31.96,13.13
424,Toora-Khem,100,RU,1584315501,91,52.47,96.11,20.12,3.8
425,Sangar,98,RU,1584315502,82,63.92,127.47,-1.01,14.52
426,Tual,74,ID,1584315503,76,-5.67,132.75,81.84,8.5
427,Cochrane,1,CA,1584315255,60,51.18,-114.47,19.0,4.7
428,Chegdomyn,64,RU,1584315506,89,51.12,133.02,9.43,1.95
429,San Nicolas,20,PH,1584315507,88,18.17,120.6,71.6,1.12
430,Fortuna,40,US,1584314986,70,40.6,-124.16,48.0,11.41
431,Ascension,40,US,1584315509,45,30.22,-90.9,82.99,4.7
432,Waipawa,0,NZ,1584315510,49,-41.41,175.52,71.6,16.11
433,Tucumcari,90,US,1584315511,71,35.17,-103.72,51.8,14.99
434,Crotone,28,IT,1584315513,70,39.09,17.12,49.8,17.05
435,Knysna,100,ZA,1584315514,93,-34.04,23.05,60.8,4.7
436,Antsohihy,100,MG,1584315515,96,-14.88,47.99,73.47,6.58
437,Sechura,17,PE,1584315516,78,-5.56,-80.82,76.69,12.28
438,Kabanjahe,40,ID,1584315517,94,3.1,98.49,78.8,2.24
439,Lorengau,100,PG,1584315518,74,-2.02,147.27,83.62,8.61
440,Orlik,100,RU,1584315520,90,52.52,99.83,14.47,3.67
441,Cabra,20,ES,1584315521,72,37.47,-4.44,60.8,11.41
442,Svetlaya,0,RU,1584315522,49,46.54,138.33,21.58,2.71
443,Mackenzie,90,CA,1584315523,38,55.3,-123.17,24.8,4.7
444,Falam,67,MM,1584315524,62,22.92,93.68,56.68,1.45
445,Mayo,40,US,1584315525,52,38.89,-76.51,50.0,3.02
446,Maniitsoq,38,GL,1584315527,67,65.42,-52.9,0.77,10.6
447,Shahr-e Bābak,68,IR,1584315528,57,30.12,55.12,48.63,4.88
448,Haimen,60,CN,1584315529,93,23.19,116.61,55.4,16.11
449,Pirenópolis,75,BR,1584315530,83,-15.85,-48.96,71.6,4.7
450,Atar,0,MR,1584315531,18,20.52,-13.05,67.3,7.47
451,Mtwara,95,TZ,1584315532,98,-10.27,40.18,73.62,2.42
452,Killybegs,25,IE,1584315534,89,54.63,-8.45,35.01,12.73
453,Madang,100,PG,1584315535,84,-5.22,145.8,78.53,11.18
454,Provincia di Ancona,0,IT,1584315536,73,43.55,13.17,44.01,2.24
455,Bubaque,100,GW,1584315537,59,11.28,-15.83,81.99,20.87
456,General Roca,0,AR,1584315429,27,-39.03,-67.58,77.0,4.7
457,Grass Valley,90,US,1584315539,96,39.22,-121.06,53.6,5.66
458,Entre Rios,87,BR,1584315541,88,-11.94,-38.08,72.32,2.73
459,Port Hardy,20,CA,1584315542,36,50.7,-127.42,44.6,8.05
460,Yaan,3,NG,1584315543,15,7.38,8.57,80.71,3.49
461,Saquena,97,PE,1584315544,86,-4.67,-73.52,78.51,2.62
462,Kirakira,100,SB,1584314987,86,-10.45,161.92,79.21,7.87
463,Jiayuguan City,100,CN,1584315546,26,39.82,98.3,34.79,5.37
464,Aswān,0,EG,1584315547,43,24.09,32.91,69.8,8.05
465,Mukhen,88,RU,1584315549,85,48.1,136.1,15.94,7.74
466,Leshukonskoye,100,RU,1584315550,89,64.9,45.76,18.95,11.43
467,Mékhé,1,SN,1584315551,83,15.11,-16.62,69.8,13.87
468,Benguela,100,AO,1584315552,80,-12.58,13.41,79.56,4.07
469,Segezha,100,RU,1584315553,86,63.74,34.32,30.74,18.45
470,Tura,82,IN,1584315554,74,25.52,90.22,64.6,0.83
471,Yangi Marg`ilon,100,UZ,1584315556,45,40.43,71.72,48.2,2.24
472,Timiryazevskiy,100,RU,1584315557,74,56.49,84.88,37.99,17.9
473,Igra,98,RU,1584315558,91,57.56,53.05,22.91,8.52
474,Harku,90,EE,1584315559,69,59.13,24.37,39.0,23.04
475,Esim,53,GH,1584315560,90,4.87,-2.24,78.96,4.29
476,Suez,0,EG,1584315398,63,29.97,32.53,64.78,1.83
477,Aitape,98,PG,1584315562,77,-3.14,142.35,79.18,15.32
478,Léo,83,BF,1584315564,35,11.1,-2.1,87.93,5.88
479,Saint Anthony,1,US,1584315565,55,45.02,-93.22,39.2,8.05
480,Hasaki,75,JP,1584315566,86,35.73,140.83,45.0,6.93
481,Camacha,40,PT,1584315567,72,33.08,-16.33,62.6,13.87
482,Imeni Poliny Osipenko,0,RU,1584315568,82,52.42,136.49,7.93,2.21
483,Bilibino,1,RU,1584315570,84,68.05,166.44,1.15,3.71
484,Lumphat,46,KH,1584315571,72,13.49,106.98,75.52,9.06
485,Erzin,75,TR,1584315572,100,36.96,36.2,63.0,6.93
486,Kalmunai,79,LK,1584315573,78,7.42,81.82,82.87,15.12
487,Qeshm,20,IR,1584315574,72,26.96,56.27,71.6,2.24
488,Shenjiamen,6,CN,1584315575,67,29.96,122.3,51.04,16.64
489,Ahipara,100,NZ,1584315576,67,-35.17,173.17,67.23,6.78
490,Pailón,75,BO,1584315578,78,-17.65,-62.75,86.0,4.7
491,Ţahţā,0,EG,1584315579,56,26.77,31.5,68.0,8.05
492,Mehamn,20,NO,1584315499,67,71.04,27.85,19.4,11.41
493,Zhanakorgan,100,KZ,1584315581,26,43.91,67.25,57.83,11.1
494,Sambava,100,MG,1584315582,83,-14.27,50.17,73.94,3.94
495,Chalmette,1,US,1584315583,54,29.94,-89.96,80.6,6.93
496,Bara,5,NG,1584315584,15,10.37,10.73,67.57,5.37
497,Chapleau,20,CA,1584315586,62,47.84,-83.4,19.4,2.24
498,Plettenberg Bay,100,ZA,1584315587,86,-34.05,23.37,61.84,6.08
499,Acapulco de Juárez,5,MX,1584315588,70,16.86,-99.89,86.0,8.05
500,Santa Cruz del Norte,20,CU,1584315589,61,23.15,-81.92,80.6,11.41
501,Pangody,47,RU,1584315590,88,65.85,74.49,-8.93,8.43
502,Shahe,100,CN,1584315591,33,39.27,113.55,37.35,8.19
503,Teya,94,RU,1584315592,95,60.38,92.63,24.44,4.61
504,Belaya Gora,0,RU,1584315594,92,68.53,146.42,-16.15,1.41
505,Lompoc,90,US,1584315424,81,34.64,-120.46,57.2,10.29
506,Veshenskaya,0,RU,1584315596,60,49.63,41.73,27.88,12.73
507,Sabalgarh,88,IN,1584315597,42,26.25,77.4,60.31,4.72
508,Payson,75,US,1584315598,41,40.04,-111.73,60.8,5.82
509,San Patricio,20,MX,1584315431,74,19.22,-104.7,84.2,11.41
510,Talā,0,EG,1584315600,89,30.68,30.94,55.85,3.15
511,Baghmara,42,IN,1584315601,64,23.8,86.21,70.27,4.76
512,Safaga,0,EG,1584315603,72,26.73,33.94,64.49,3.58
513,Jiazi,36,CN,1584315604,66,22.88,116.07,63.01,9.62
514,Chon Daen,20,TH,1584315605,100,16.19,100.86,73.4,1.68
515,Estelle,1,US,1584315606,65,29.85,-90.11,81.0,8.05
516,Ukiah,75,US,1584315607,57,39.15,-123.21,54.0,6.93
517,Gravelbourg,100,CA,1584315608,76,49.88,-106.55,22.33,8.34
518,Gushikawa,20,JP,1584315610,45,26.35,127.87,64.4,10.29
519,Nova Esperanca,92,BR,1584315611,79,4.44,-61.12,73.71,3.33
520,Saint-François,39,FR,1584315612,61,46.42,3.91,50.0,6.93
521,Montoro,20,ES,1584315613,72,38.02,-4.38,60.8,11.41
522,Stepnyak,16,KZ,1584315614,86,52.83,70.78,27.68,11.63
523,Sikonge,68,TZ,1584315615,87,-5.63,32.77,65.28,1.05
524,Rūdbār,48,AF,1584315616,26,30.15,62.6,67.32,7.4
525,Oxapampa,100,PE,1584315618,99,-10.58,-75.4,56.82,0.94
526,Luga,58,RU,1584315619,62,58.74,29.85,30.09,11.97
527,Grand-Lahou,69,CI,1584315620,83,5.14,-5.02,82.56,13.98
528,Ponta Delgada,20,PT,1584315621,81,37.73,-25.67,51.8,3.36
529,Northam,1,GB,1584315622,100,51.03,-4.22,44.01,5.82
530,Pithora,63,IN,1584315623,69,21.27,82.52,70.56,3.47
531,Warrington,75,GB,1584315624,75,53.39,-2.58,46.4,12.75
532,Shache,0,CN,1584315626,22,38.42,77.24,42.3,5.66
533,Te Anau,63,NZ,1584315627,82,-45.42,167.72,50.43,8.5
534,Pastavy,18,BY,1584315628,52,55.12,26.83,29.68,12.77
535,Leh,0,IN,1584315629,49,34.17,77.58,8.53,2.17
536,Geraldton,40,AU,1584315630,88,-28.77,114.6,68.0,8.05
537,Udachny,90,RU,1584315632,92,66.42,112.4,21.2,4.47
538,Bathsheba,20,BB,1584315633,78,13.22,-59.52,77.0,4.7
539,Talaya,91,RU,1584315634,83,61.38,152.75,-5.93,3.65
540,Laas,75,IT,1584315635,85,46.62,10.7,32.0,2.24
541,Amparafaravola,99,MG,1584315636,88,-17.58,48.22,62.65,4.05
542,Beyneu,67,KZ,1584315637,62,45.32,55.2,45.84,7.31
543,Kanye,0,BW,1584315638,37,-24.97,25.33,69.08,5.21
544,Fairlie,59,GB,1584315640,93,55.76,-4.86,42.01,6.93
